{
  "In-Cloud": [
    {
      "category": "Frictionless",
      "items": [
        {
          "name": "Animate",
          "icon": "/images/Animate_logo.png",
          "status": "ready",
          "longitude": -122.4194,
          "latitude": 37.7749,
          "services": [
            { "name": "Mesh", "state": "ready", "url": "https://animate.eventsoft.link.to/mesh", "type": "web_service" },
            { "name": "Virtual Internet", "state": "ready", "url": "Internal", "type": "web_service" },
            { "name": "Database", "state": "ready", "url": "Internal", "type": "database" },
            { "name": "Microhost-001", "state": "ready", "url": "NA", "type": "microdesktop" },
            { "name": "Minio", "state": "ready", "url": "https://eventsoft.link.to/minio", "type": "web_service" }
          ],
          "properties": {
            "os": "Alpine 3.17",
            "ip": "136.37.64.18",
            "cores": "4",
            "ram": "4GB",
            "storage_total": "100GB",
            "region": "North America",
            "uptime": "99.99%"
          }
        },
        {
          "name": "Evensoft",
          "icon": "/images/Evensoft_logo.png",
          "status": "ready",
          "longitude": -111.4194,
          "latitude": 29.7749,
          "services": [
            { "name": "Mesh", "state": "ready", "url": "https://animate.eventsoft.link.to/mesh", "type": "web_service" },
            { "name": "Virtual Internet", "state": "ready", "url": "Internal", "type": "web_service" },
            { "name": "Database", "state": "ready", "url": "Internal", "type": "database" },
            { "name": "Microhost-001", "state": "ready", "url": "NA", "type": "microdesktop" },
            { "name": "Minio", "state": "ready", "url": "https://eventsoft.link.to/minio", "type": "web_service" }
          ],
          "properties": {
            "os": "Ubuntu 22.04",
            "ip": "192.168.0.12",
            "cores": "8",
            "ram": "16GB",
            "storage_total": "200GB",
            "region": "South America",
            "uptime": "99.95%"
          }
        }
      ]
    },
    {
      "category": "Amazon",
      "items": [
        {
          "name": "Awsservices3",
          "icon": "/images/AmazonS3_logo.png",
          "status": "poweredoff",
          "longitude": -144.4194,
          "latitude": 47.7749,
          "services": [
            { "name": "Mesh", "state": "ready", "url": "https://animate.eventsoft.link.to/mesh", "type": "web_service" },
            { "name": "Virtual Internet", "state": "ready", "url": "Internal", "type": "web_service" },
            { "name": "Database", "state": "ready", "url": "Internal", "type": "database" },
            { "name": "Microhost-001", "state": "ready", "url": "NA", "type": "microdesktop" },
            { "name": "Minio", "state": "ready", "url": "https://eventsoft.link.to/minio", "type": "web_service" }
          ],
          "properties": {
            "os": "Amazon Linux 2",
            "ip": "172.31.254.1",
            "cores": "16",
            "ram": "64GB",
            "storage_total": "500GB",
            "region": "North Pacific",
            "uptime": "N/A"
          }
        }
      ]
    }
  ],
  "On-Prem": [
    {
      "category": "Central",
      "items": [
        {
          "name": "Cubic_Central_01",
          "icon": "/images/Animate_logo.png",
          "status": "poweredoff",
          "longitude": -100.4194,
          "latitude": 155.7749,
          "services": [
            { "name": "Mesh", "state": "ready", "url": "https://animate.eventsoft.link.to/mesh", "type": "web_service" },
            { "name": "Virtual Internet", "state": "ready", "url": "Internal", "type": "web_service" },
            { "name": "Database", "state": "ready", "url": "Internal", "type": "database" },
            { "name": "Microhost-001", "state": "ready", "url": "NA", "type": "microdesktop" },
            { "name": "Minio", "state": "ready", "url": "https://eventsoft.link.to/minio", "type": "web_service" }
          ],
          "properties": {
            "os": "Windows Server 2019",
            "ip": "10.0.0.1",
            "cores": "32",
            "ram": "128GB",
            "storage_total": "1TB",
            "region": "Central America",
            "uptime": "99.90%"
          }
        }
      ]
    },
    {
      "category": "East-Coast",
      "items": [
        {
          "name": "Cubic_01",
          "icon": "/images/Animate_logo.png",
          "status": "unmanaged",
          "longitude": -166.4194,
          "latitude": 47.7749,
          "services": [
            { "name": "Mesh", "state": "ready", "url": "https://animate.eventsoft.link.to/mesh", "type": "web_service" },
            { "name": "Virtual Internet", "state": "ready", "url": "Internal", "type": "web_service" },
            { "name": "Database", "state": "ready", "url": "Internal", "type": "database" },
            { "name": "Microhost-001", "state": "ready", "url": "NA", "type": "microdesktop" },
            { "name": "Minio", "state": "ready", "url": "https://eventsoft.link.to/minio", "type": "web_service" }
          ],
          "properties": {
            "os": "Debian 12",
            "ip": "172.16.1.1",
            "cores": "8",
            "ram": "32GB",
            "storage_total": "250GB",
            "region": "East Coast",
            "uptime": "N/A"
          }
        },
        {
          "name": "Cubic_East_01",
          "icon": "/images/Animate_logo.png",
          "status": "poweredoff",
          "services": [
            { "name": "Mesh", "state": "ready", "url": "https://animate.eventsoft.link.to/mesh", "type": "web_service" },
            { "name": "Virtual Internet", "state": "ready", "url": "Internal", "type": "web_service" },
            { "name": "Database", "state": "ready", "url": "Internal", "type": "database" },
            { "name": "Microhost-001", "state": "ready", "url": "NA", "type": "microdesktop" },
            { "name": "Minio", "state": "ready", "url": "https://eventsoft.link.to/minio", "type": "web_service" }
          ],
          "properties": {
            "os": "Red Hat 9",
            "ip": "10.1.0.10",
            "cores": "12",
            "ram": "48GB",
            "storage_total": "1TB",
            "region": "East Coast",
            "uptime": "N/A"
          }
        }
      ]
    },
    {
      "category": "West-Coast",
      "items": [
        {
          "name": "Cubic_West_01",
          "icon": "/images/Animate_logo.png",
          "status": "poweredoff",
          "longitude": -100.4194,
          "latitude": 66.7749,
          "services": [
            { "name": "Mesh", "state": "ready", "url": "https://animate.eventsoft.link.to/mesh", "type": "web_service" },
            { "name": "Virtual Internet", "state": "ready", "url": "Internal", "type": "web_service" },
            { "name": "Database", "state": "ready", "url": "Internal", "type": "database" },
            { "name": "Microhost-001", "state": "ready", "url": "NA", "type": "microdesktop" },
            { "name": "Minio", "state": "ready", "url": "https://eventsoft.link.to/minio", "type": "web_service" }
          ],
          "properties": {
            "os": "CentOS 8",
            "ip": "192.168.1.1",
            "cores": "24",
            "ram": "96GB",
            "storage_total": "2TB",
            "region": "West Coast",
            "uptime": "N/A"
          }
        }
      ]
    }
  ]
}
